__time,/imu/angular_velocity/x,/imu/angular_velocity/y,/imu/angular_velocity/z,/imu/angular_velocity_covariance[0;0],/imu/angular_velocity_covariance[0;1],/imu/angular_velocity_covariance[0;2],/imu/angular_velocity_covariance[1;1],/imu/angular_velocity_covariance[1;2],/imu/angular_velocity_covariance[2;2],/imu/header/seq,/imu/header/stamp,/imu/linear_acceleration/x,/imu/linear_acceleration/y,/imu/linear_acceleration/z,/imu/linear_acceleration_covariance[0;0],/imu/linear_acceleration_covariance[0;1],/imu/linear_acceleration_covariance[0;2],/imu/linear_acceleration_covariance[1;1],/imu/linear_acceleration_covariance[1;2],/imu/linear_acceleration_covariance[2;2],/imu/orientation/pitch_deg,/imu/orientation/roll_deg,/imu/orientation/w,/imu/orientation/x,/imu/orientation/y,/imu/orientation/yaw_deg,/imu/orientation/z,/imu/orientation_covariance[0;0],/imu/orientation_covariance[0;1],/imu/orientation_covariance[0;2],/imu/orientation_covariance[1;1],/imu/orientation_covariance[1;2],/imu/orientation_covariance[2;2]
88.680000,0.027194,0.019595,-0.026623,0.000000,0.000000,0.000000,0.000000,0.000000,0.000000,1.000000,88.679000,0.050847,0.004892,9.799856,0.000000,0.000000,0.000000,0.000000,0.000000,0.000000,-0.297079,0.028787,0.998436,0.000106,-0.002602,-6.402100,-0.055839,0.000000,0.000000,0.000000,0.000000,0.000000,0.000000
88.780000,0.027195,0.019588,-0.026608,0.000000,0.000000,0.000000,0.000000,0.000000,0.000000,2.000000,88.779000,0.050817,0.004971,9.799856,0.000000,0.000000,0.000000,0.000000,0.000000,0.000000,-0.296899,0.029246,0.998382,0.000108,-0.002601,-6.512344,-0.056799,0.000000,0.000000,0.000000,0.000000,0.000000,0.000000
88.880000,0.006084,0.002013,-0.000149,0.000000,0.000000,0.000000,0.000000,0.000000,0.000000,3.000000,88.879000,0.048762,-0.017552,9.804118,0.000000,0.000000,0.000000,0.000000,0.000000,0.000000,-0.297794,0.028588,0.998362,0.000101,-0.002609,-6.552664,-0.057151,0.000000,0.000000,0.000000,0.000000,0.000000,0.000000
88.980000,0.045853,0.021731,-0.023193,0.000000,0.000000,0.000000,0.000000,0.000000,0.000000,4.000000,88.979000,0.058835,-0.001856,9.782205,0.000000,0.000000,0.000000,0.000000,0.000000,0.000000,-0.297026,0.030286,0.998348,0.000115,-0.002603,-6.581429,-0.057401,0.000000,0.000000,0.000000,0.000000,0.000000,0.000000
89.080000,0.012472,0.010308,-0.004640,0.000000,0.000000,0.000000,0.000000,0.000000,0.000000,5.000000,89.079000,0.054915,0.022737,9.831591,0.000000,0.000000,0.000000,0.000000,0.000000,0.000000,-0.297706,0.028488,0.998332,0.000098,-0.002608,-6.611964,-0.057667,0.000000,0.000000,0.000000,0.000000,0.000000,0.000000
89.180000,0.003841,0.002504,0.000191,0.000000,0.000000,0.000000,0.000000,0.000000,0.000000,6.000000,89.179000,0.039837,-0.004318,9.776860,0.000000,0.000000,0.000000,0.000000,0.000000,0.000000,-0.297879,0.028678,0.998321,0.000099,-0.002610,-6.634977,-0.057868,0.000000,0.000000,0.000000,0.000000,0.000000,0.000000
89.280000,0.036311,0.017568,-0.019504,0.000000,0.000000,0.000000,0.000000,0.000000,0.000000,7.000000,89.279000,0.055447,0.004239,9.775903,0.000000,0.000000,0.000000,0.000000,0.000000,0.000000,-0.297131,0.030341,0.998309,0.000114,-0.002604,-6.659049,-0.058078,0.000000,0.000000,0.000000,0.000000,0.000000,0.000000
89.380000,0.008225,0.002999,-0.000262,0.000000,0.000000,0.000000,0.000000,0.000000,0.000000,8.000000,89.379000,0.046328,0.003668,9.832846,0.000000,0.000000,0.000000,0.000000,0.000000,0.000000,-0.297804,0.028697,0.998295,0.000098,-0.002609,-6.685463,-0.058308,0.000000,0.000000,0.000000,0.000000,0.000000,0.000000
89.480000,-0.007137,-0.002609,0.001175,0.000000,0.000000,0.000000,0.000000,0.000000,0.000000,9.000000,89.479000,0.044835,0.017846,9.832868,0.000000,0.000000,0.000000,0.000000,0.000000,0.000000,-0.297819,0.028829,0.998281,0.000099,-0.002609,-6.712900,-0.058547,0.000000,0.000000,0.000000,0.000000,0.000000,0.000000
89.580000,0.006850,0.001908,-0.000255,0.000000,0.000000,0.000000,0.000000,0.000000,0.000000,10.000000,89.579000,0.055896,-0.007927,9.769311,0.000000,0.000000,0.000000,0.000000,0.000000,0.000000,-0.297884,0.028806,0.998267,0.000098,-0.002610,-6.740337,-0.058786,0.000000,0.000000,0.000000,0.000000,0.000000,0.000000
89.680000,0.045460,0.021689,-0.023018,0.000000,0.000000,0.000000,0.000000,0.000000,0.000000,11.000000,89.679000,0.059056,-0.001213,9.778919,0.000000,0.000000,0.000000,0.000000,0.000000,0.000000,-0.297113,0.030506,0.998252,0.000113,-0.002604,-6.769075,-0.059036,0.000000,0.000000,0.000000,0.000000,0.000000,0.000000
89.780000,0.019119,0.018665,-0.022526,0.000000,0.000000,0.000000,0.000000,0.000000,0.000000,12.000000,89.779000,0.045257,0.034679,9.817831,0.000000,0.000000,0.000000,0.000000,0.000000,0.000000,-0.297449,0.029447,0.998237,0.000103,-0.002606,-6.798476,-0.059292,0.000000,0.000000,0.000000,0.000000,0.000000,0.000000
89.880000,0.010496,0.008608,-0.002791,0.000000,0.000000,0.000000,0.000000,0.000000,0.000000,13.000000,89.879000,0.058666,-0.009540,9.807972,0.000000,0.000000,0.000000,0.000000,0.000000,0.000000,-0.297748,0.028883,0.998223,0.000097,-0.002609,-6.826636,-0.059538,0.000000,0.000000,0.000000,0.000000,0.000000,0.000000
89.980000,-0.010976,-0.006206,0.000619,0.000000,0.000000,0.000000,0.000000,0.000000,0.000000,14.000000,89.979000,0.031547,0.018368,9.821117,0.000000,0.000000,0.000000,0.000000,0.000000,0.000000,-0.297668,0.028973,0.998208,0.000097,-0.002608,-6.854182,-0.059778,0.000000,0.000000,0.000000,0.000000,0.000000,0.000000
90.080000,0.011112,0.003824,-0.000314,0.000000,0.000000,0.000000,0.000000,0.000000,0.000000,15.000000,90.079000,0.062083,-0.019945,9.778677,0.000000,0.000000,0.000000,0.000000,0.000000,0.000000,-0.297937,0.028735,0.998194,0.000094,-0.002610,-6.881700,-0.060017,0.000000,0.000000,0.000000,0.000000,0.000000,0.000000
90.180000,0.026639,0.020210,-0.025882,0.000000,0.000000,0.000000,0.000000,0.000000,0.000000,16.000000,90.179000,0.050146,0.032651,9.803118,0.000000,0.000000,0.000000,0.000000,0.000000,0.000000,-0.297496,0.029602,0.998180,0.000101,-0.002607,-6.908119,-0.060247,0.000000,0.000000,0.000000,0.000000,0.000000,0.000000
90.280000,-0.003800,-0.003248,0.000382,0.000000,0.000000,0.000000,0.000000,0.000000,0.000000,17.000000,90.279000,0.043578,-0.009929,9.830965,0.000000,0.000000,0.000000,0.000000,0.000000,0.000000,-0.297892,0.028984,0.998167,0.000095,-0.002610,-6.932028,-0.060456,0.000000,0.000000,0.000000,0.000000,0.000000,0.000000
90.380000,0.029522,0.023304,-0.026790,0.000000,0.000000,0.000000,0.000000,0.000000,0.000000,18.000000,90.379000,0.064463,0.014438,9.744315,0.000000,0.000000,0.000000,0.000000,0.000000,0.000000,-0.297294,0.030263,0.998152,0.000106,-0.002606,-6.960651,-0.060705,0.000000,0.000000,0.000000,0.000000,0.000000,0.000000
90.480000,0.020098,0.021259,-0.029007,0.000000,0.000000,0.000000,0.000000,0.000000,0.000000,19.000000,90.479000,0.043976,0.026600,9.802689,0.000000,0.000000,0.000000,0.000000,0.000000,0.000000,-0.297221,0.029607,0.998135,0.000100,-0.002605,-6.992733,-0.060984,0.000000,0.000000,0.000000,0.000000,0.000000,0.000000
90.580000,0.020977,0.020623,-0.031287,0.000000,0.000000,0.000000,0.000000,0.000000,0.000000,20.000000,90.579000,0.048419,0.007449,9.807918,0.000000,0.000000,0.000000,0.000000,0.000000,0.000000,-0.297170,0.029340,0.998062,0.000094,-0.002604,-7.129237,-0.062173,0.000000,0.000000,0.000000,0.000000,0.000000,0.000000
90.680000,0.023604,0.020152,-0.032460,0.000000,0.000000,0.000000,0.000000,0.000000,0.000000,21.000000,90.679000,0.051101,0.005204,9.803656,0.000000,0.000000,0.000000,0.000000,0.000000,0.000000,-0.297263,0.029289,0.997986,0.000091,-0.002605,-7.268670,-0.063388,0.000000,0.000000,0.000000,0.000000,0.000000,0.000000
90.780000,0.024677,0.021605,-0.032141,0.000000,0.000000,0.000000,0.000000,0.000000,0.000000,22.000000,90.779000,0.050791,0.002080,9.797726,0.000000,0.000000,0.000000,0.000000,0.000000,0.000000,-0.297135,0.029499,0.997909,0.000089,-0.002604,-7.406189,-0.064585,0.000000,0.000000,0.000000,0.000000,0.000000,0.000000
90.880000,0.022929,0.021608,-0.031809,0.000000,0.000000,0.000000,0.000000,0.000000,0.000000,23.000000,90.879000,0.050946,0.006113,9.799337,0.000000,0.000000,0.000000,0.000000,0.000000,0.000000,-0.297129,0.029468,0.997830,0.000086,-0.002604,-7.545148,-0.065795,0.000000,0.000000,0.000000,0.000000,0.000000,0.000000
90.980000,0.029303,0.016112,-0.032098,0.000000,0.000000,0.000000,0.000000,0.000000,0.000000,24.000000,90.979000,0.043997,-0.003375,9.798783,0.000000,0.000000,0.000000,0.000000,0.000000,0.000000,-0.297367,0.028914,0.997749,0.000078,-0.002606,-7.685189,-0.067015,0.000000,0.000000,0.000000,0.000000,0.000000,0.000000
91.080000,0.007793,0.001963,-0.000110,0.000000,0.000000,0.000000,0.000000,0.000000,0.000000,25.000000,91.079000,0.060133,-0.030391,9.809590,0.000000,0.000000,0.000000,0.000000,0.000000,0.000000,-0.297999,0.029032,0.997727,0.000078,-0.002612,-7.721953,-0.067335,0.000000,0.000000,0.000000,0.000000,0.000000,0.000000
91.180000,0.048370,0.022104,-0.024568,0.000000,0.000000,0.000000,0.000000,0.000000,0.000000,26.000000,91.179000,0.057367,0.001466,9.779284,0.000000,0.000000,0.000000,0.000000,0.000000,0.000000,-0.297365,0.030741,0.997711,0.000092,-0.002607,-7.749381,-0.067574,0.000000,0.000000,0.000000,0.000000,0.000000,0.000000
91.280000,-0.006593,-0.007342,-0.000019,0.000000,0.000000,0.000000,0.000000,0.000000,0.000000,27.000000,91.279000,0.034247,0.028882,9.849886,0.000000,0.000000,0.000000,0.000000,0.000000,0.000000,-0.297844,0.029054,0.997696,0.000077,-0.002610,-7.775218,-0.067799,0.000000,0.000000,0.000000,0.000000,0.000000,0.000000
91.380000,0.024584,0.022436,-0.032863,0.000000,0.000000,0.000000,0.000000,0.000000,0.000000,28.000000,91.379000,0.060641,0.027037,9.759306,0.000000,0.000000,0.000000,0.000000,0.000000,0.000000,-0.297165,0.029596,0.997643,0.000080,-0.002605,-7.863738,-0.068569,0.000000,0.000000,0.000000,0.000000,0.000000,0.000000
91.480000,0.022963,0.021583,-0.031792,0.000000,0.000000,0.000000,0.000000,0.000000,0.000000,29.000000,91.479000,0.049069,0.006631,9.802333,0.000000,0.000000,0.000000,0.000000,0.000000,0.000000,-0.297161,0.029544,0.997560,0.000076,-0.002605,-8.001127,-0.069765,0.000000,0.000000,0.000000,0.000000,0.000000,0.000000
91.580000,0.026245,0.022597,-0.031911,0.000000,0.000000,0.000000,0.000000,0.000000,0.000000,30.000000,91.579000,0.052836,0.004130,9.800261,0.000000,0.000000,0.000000,0.000000,0.000000,0.000000,-0.297229,0.029479,0.997474,0.000072,-0.002606,-8.140616,-0.070980,0.000000,0.000000,0.000000,0.000000,0.000000,0.000000
91.680000,0.024034,0.023712,-0.032702,0.000000,0.000000,0.000000,0.000000,0.000000,0.000000,31.000000,91.679000,0.048447,-0.003959,9.788240,0.000000,0.000000,0.000000,0.000000,0.000000,0.000000,-0.297268,0.029299,0.997387,0.000068,-0.002606,-8.279796,-0.072191,0.000000,0.000000,0.000000,0.000000,0.000000,0.000000
91.780000,0.020177,0.024062,-0.032497,0.000000,0.000000,0.000000,0.000000,0.000000,0.000000,32.000000,91.779000,0.051697,0.018478,9.809467,0.000000,0.000000,0.000000,0.000000,0.000000,0.000000,-0.297234,0.029424,0.997299,0.000066,-0.002606,-8.418987,-0.073403,0.000000,0.000000,0.000000,0.000000,0.000000,0.000000
91.880000,0.025463,0.026992,-0.036579,0.000000,0.000000,0.000000,0.000000,0.000000,0.000000,33.000000,91.879000,0.052832,-0.001437,9.797050,0.000000,0.000000,0.000000,0.000000,0.000000,0.000000,-0.297234,0.029641,0.997209,0.000064,-0.002606,-8.558238,-0.074614,0.000000,0.000000,0.000000,0.000000,0.000000,0.000000
91.980000,0.024727,0.020940,-0.031349,0.000000,0.000000,0.000000,0.000000,0.000000,0.000000,34.000000,91.979000,0.048482,0.007500,9.804714,0.000000,0.000000,0.000000,0.000000,0.000000,0.000000,-0.297187,0.029517,0.997118,0.000060,-0.002606,-8.696679,-0.075819,0.000000,0.000000,0.000000,0.000000,0.000000,0.000000
92.080000,0.022596,0.021298,-0.031669,0.000000,0.000000,0.000000,0.000000,0.000000,0.000000,35.000000,92.079000,0.051990,0.006382,9.798691,0.000000,0.000000,0.000000,0.000000,0.000000,0.000000,-0.297220,0.029471,0.997025,0.000057,-0.002606,-8.836385,-0.077035,0.000000,0.000000,0.000000,0.000000,0.000000,0.000000
92.180000,0.022776,0.021838,-0.031269,0.000000,0.000000,0.000000,0.000000,0.000000,0.000000,36.000000,92.179000,0.049122,0.006404,9.802696,0.000000,0.000000,0.000000,0.000000,0.000000,0.000000,-0.297363,0.029248,0.996931,0.000051,-0.002607,-8.975543,-0.078245,0.000000,0.000000,0.000000,0.000000,0.000000,0.000000
92.280000,0.024209,0.021179,-0.031504,0.000000,0.000000,0.000000,0.000000,0.000000,0.000000,37.000000,92.279000,0.051693,0.002677,9.798525,0.000000,0.000000,0.000000,0.000000,0.000000,0.000000,-0.297187,0.029540,0.996835,0.000051,-0.002606,-9.113994,-0.079450,0.000000,0.000000,0.000000,0.000000,0.000000,0.000000
92.380000,0.032855,0.020367,-0.035235,0.000000,0.000000,0.000000,0.000000,0.000000,0.000000,38.000000,92.379000,0.049118,-0.001011,9.800074,0.000000,0.000000,0.000000,0.000000,0.000000,0.000000,-0.297250,0.029393,0.996737,0.000046,-0.002606,-9.255417,-0.080680,0.000000,0.000000,0.000000,0.000000,0.000000,0.000000
92.480000,0.024361,0.026042,-0.035787,0.000000,0.000000,0.000000,0.000000,0.000000,0.000000,39.000000,92.479000,0.055146,0.008765,9.794711,0.000000,0.000000,0.000000,0.000000,0.000000,0.000000,-0.297269,0.029600,0.996638,0.000045,-0.002607,-9.394674,-0.081891,0.000000,0.000000,0.000000,0.000000,0.000000,0.000000
92.580000,0.033802,0.019317,-0.032839,0.000000,0.000000,0.000000,0.000000,0.000000,0.000000,40.000000,92.579000,0.047065,-0.007687,9.810645,0.000000,0.000000,0.000000,0.000000,0.000000,0.000000,-0.297462,0.028927,0.996538,0.000036,-0.002608,-9.533622,-0.083100,0.000000,0.000000,0.000000,0.000000,0.000000,0.000000
92.680000,-0.002897,-0.001381,0.000358,0.000000,0.000000,0.000000,0.000000,0.000000,0.000000,41.000000,92.679000,0.050383,-0.012127,9.850636,0.000000,0.000000,0.000000,0.000000,0.000000,0.000000,-0.298331,0.029251,0.996464,0.000036,-0.002616,-9.635473,-0.083985,0.000000,0.000000,0.000000,0.000000,0.000000,0.000000
92.780000,-0.012258,-0.006199,0.000608,0.000000,0.000000,0.000000,0.000000,0.000000,0.000000,42.000000,92.779000,0.046585,0.019271,9.768610,0.000000,0.000000,0.000000,0.000000,0.000000,0.000000,-0.297864,0.029174,0.996450,0.000035,-0.002612,-9.654316,-0.084149,0.000000,0.000000,0.000000,0.000000,0.000000,0.000000
92.880000,-0.012100,-0.006264,0.000654,0.000000,0.000000,0.000000,0.000000,0.000000,0.000000,43.000000,92.879000,0.051186,0.005179,9.799732,0.000000,0.000000,0.000000,0.000000,0.000000,0.000000,-0.297797,0.029181,0.996432,0.000034,-0.002611,-9.679118,-0.084365,0.000000,0.000000,0.000000,0.000000,0.000000,0.000000
92.980000,-0.006740,-0.001724,0.001552,0.000000,0.000000,0.000000,0.000000,0.000000,0.000000,44.000000,92.979000,0.056088,-0.007270,9.797007,0.000000,0.000000,0.000000,0.000000,0.000000,0.000000,-0.298093,0.029262,0.996415,0.000034,-0.002614,-9.701665,-0.084561,0.000000,0.000000,0.000000,0.000000,0.000000,0.000000
93.080000,0.044742,0.021594,-0.022154,0.000000,0.000000,0.000000,0.000000,0.000000,0.000000,45.000000,93.079000,0.062551,-0.013303,9.757458,0.000000,0.000000,0.000000,0.000000,0.000000,0.000000,-0.297309,0.030927,0.996395,0.000049,-0.002608,-9.728348,-0.084793,0.000000,0.000000,0.000000,0.000000,0.000000,0.000000
93.180000,-0.006892,-0.006820,-0.000196,0.000000,0.000000,0.000000,0.000000,0.000000,0.000000,46.000000,93.179000,0.032696,0.030414,9.857201,0.000000,0.000000,0.000000,0.000000,0.000000,0.000000,-0.297805,0.029257,0.996374,0.000033,-0.002611,-9.756795,-0.085040,0.000000,0.000000,0.000000,0.000000,0.000000,0.000000
93.280000,-0.004502,-0.001654,0.000900,0.000000,0.000000,0.000000,0.000000,0.000000,0.000000,47.000000,93.279000,0.057263,-0.003817,9.797059,0.000000,0.000000,0.000000,0.000000,0.000000,0.000000,-0.298071,0.029316,0.996355,0.000033,-0.002613,-9.782011,-0.085260,0.000000,0.000000,0.000000,0.000000,0.000000,0.000000
93.380000,-0.010174,-0.006016,0.000218,0.000000,0.000000,0.000000,0.000000,0.000000,0.000000,48.000000,93.379000,0.046006,0.017611,9.795397,0.000000,0.000000,0.000000,0.000000,0.000000,0.000000,-0.297882,0.029205,0.996335,0.000032,-0.002612,-9.808949,-0.085494,0.000000,0.000000,0.000000,0.000000,0.000000,0.000000
93.480000,-0.000310,-0.007258,-0.001245,0.000000,0.000000,0.000000,0.000000,0.000000,0.000000,49.000000,93.479000,0.048622,-0.003061,9.819080,0.000000,0.000000,0.000000,0.000000,0.000000,0.000000,-0.297924,0.029220,0.996317,0.000031,-0.002612,-9.833380,-0.085706,0.000000,0.000000,0.000000,0.000000,0.000000,0.000000
93.580000,0.001125,-0.002510,0.000628,0.000000,0.000000,0.000000,0.000000,0.000000,0.000000,50.000000,93.579000,0.055539,-0.004175,9.809176,0.000000,0.000000,0.000000,0.000000,0.000000,0.000000,-0.298251,0.029227,0.996298,0.000030,-0.002615,-9.858535,-0.085925,0.000000,0.000000,0.000000,0.000000,0.000000,0.000000
93.680000,0.009172,0.003741,-0.000416,0.000000,0.000000,0.000000,0.000000,0.000000,0.000000,51.000000,93.679000,0.059459,-0.000829,9.747009,0.000000,0.000000,0.000000,0.000000,0.000000,0.000000,-0.298014,0.029213,0.996281,0.000030,-0.002613,-9.881391,-0.086124,0.000000,0.000000,0.000000,0.000000,0.000000,0.000000
93.780000,0.015847,0.019528,-0.022440,0.000000,0.000000,0.000000,0.000000,0.000000,0.000000,52.000000,93.779000,0.051480,0.031385,9.791120,0.000000,0.000000,0.000000,0.000000,0.000000,0.000000,-0.297730,0.029891,0.996262,0.000036,-0.002611,-9.907329,-0.086349,0.000000,0.000000,0.000000,0.000000,0.000000,0.000000
93.880000,0.006258,0.002067,0.000158,0.000000,0.000000,0.000000,0.000000,0.000000,0.000000,53.000000,93.879000,0.048936,-0.021006,9.805634,0.000000,0.000000,0.000000,0.000000,0.000000,0.000000,-0.298102,0.029299,0.996244,0.000030,-0.002614,-9.930867,-0.086554,0.000000,0.000000,0.000000,0.000000,0.000000,0.000000
93.980000,0.025748,0.020152,-0.025349,0.000000,0.000000,0.000000,0.000000,0.000000,0.000000,54.000000,93.979000,0.051844,0.031152,9.807787,0.000000,0.000000,0.000000,0.000000,0.000000,0.000000,-0.297651,0.029955,0.996224,0.000035,-0.002610,-9.956621,-0.086778,0.000000,0.000000,0.000000,0.000000,0.000000,0.000000
94.080000,-0.007610,-0.002603,0.001314,0.000000,0.000000,0.000000,0.000000,0.000000,0.000000,55.000000,94.079000,0.044469,-0.006698,9.821363,0.000000,0.000000,0.000000,0.000000,0.000000,0.000000,-0.298038,0.029384,0.996206,0.000029,-0.002613,-9.980439,-0.086985,0.000000,0.000000,0.000000,0.000000,0.000000,0.000000
94.180000,-0.002173,-0.006958,0.001452,0.000000,0.000000,0.000000,0.000000,0.000000,0.000000,56.000000,94.179000,0.046422,0.007651,9.804899,0.000000,0.000000,0.000000,0.000000,0.000000,0.000000,-0.297920,0.029366,0.996186,0.000029,-0.002612,-10.007088,-0.087216,0.000000,0.000000,0.000000,0.000000,0.000000,0.000000
94.280000,0.005834,0.002008,0.000204,0.000000,0.000000,0.000000,0.000000,0.000000,0.000000,57.000000,94.279000,0.061208,-0.011415,9.762754,0.000000,0.000000,0.000000,0.000000,0.000000,0.000000,-0.298102,0.029324,0.996169,0.000028,-0.002614,-10.029714,-0.087413,0.000000,0.000000,0.000000,0.000000,0.000000,0.000000
94.380000,0.009676,0.009084,-0.003126,0.000000,0.000000,0.000000,0.000000,0.000000,0.000000,58.000000,94.379000,0.061418,0.015068,9.806124,0.000000,0.000000,0.000000,0.000000,0.000000,0.000000,-0.298034,0.029234,0.996148,0.000026,-0.002613,-10.057057,-0.087651,0.000000,0.000000,0.000000,0.000000,0.000000,0.000000
94.480000,-0.020420,-0.030955,-0.013573,0.000000,0.000000,0.000000,0.000000,0.000000,0.000000,59.000000,94.479000,1.057833,0.056261,9.740401,0.000000,0.000000,0.000000,0.000000,0.000000,0.000000,-0.307445,-0.004543,0.996108,-0.000276,-0.002669,-10.108113,-0.088095,0.000000,0.000000,0.000000,0.000000,0.000000,0.000000
94.580000,0.026184,-0.055114,0.000245,0.000000,0.000000,0.000000,0.000000,0.000000,0.000000,60.000000,94.579000,1.033771,-0.120583,9.831594,0.000000,0.000000,0.000000,0.000000,0.000000,0.000000,-0.307760,-0.004893,0.996037,-0.000281,-0.002671,-10.200231,-0.088896,0.000000,0.000000,0.000000,0.000000,0.000000,0.000000
94.680000,0.018164,-0.020033,0.001426,0.000000,0.000000,0.000000,0.000000,0.000000,0.000000,61.000000,94.679000,1.164534,0.015244,9.839671,0.000000,0.000000,0.000000,0.000000,0.000000,0.000000,-0.308742,-0.003549,0.996045,-0.000270,-0.002681,-10.190091,-0.088808,0.000000,0.000000,0.000000,0.000000,0.000000,0.000000
94.780000,0.002387,0.055323,1.016438,0.000000,0.000000,0.000000,0.000000,0.000000,0.000000,62.000000,94.779000,2.244279,-1.611574,9.713970,0.000000,0.000000,0.000000,0.000000,0.000000,0.000000,-0.307326,-0.000217,0.997586,-0.000188,-0.002675,-7.957176,-0.069383,0.000000,0.000000,0.000000,0.000000,0.000000,0.000000
94.880000,0.023726,-0.063716,1.038091,0.000000,0.000000,0.000000,0.000000,0.000000,0.000000,63.000000,94.879000,0.189419,0.446747,9.722671,0.000000,0.000000,0.000000,0.000000,0.000000,0.000000,-0.310222,0.000953,0.999827,-0.000042,-0.002707,-2.108831,-0.018402,0.000000,0.000000,0.000000,0.000000,0.000000,0.000000
94.980000,-0.195664,0.008026,1.031698,0.000000,0.000000,0.000000,0.000000,0.000000,0.000000,64.000000,94.979000,0.349170,0.709411,9.939836,0.000000,0.000000,0.000000,0.000000,0.000000,0.000000,-0.293332,-0.011115,0.999456,-0.000013,-0.002562,3.768323,0.032879,0.000000,0.000000,0.000000,0.000000,0.000000,0.000000
95.080000,0.070104,-0.012466,1.033351,0.000000,0.000000,0.000000,0.000000,0.000000,0.000000,65.000000,95.079000,0.240118,0.275200,9.580303,0.000000,0.000000,0.000000,0.000000,0.000000,0.000000,-0.304687,0.016143,0.996431,0.000365,-0.002638,9.679047,0.084365,0.000000,0.000000,0.000000,0.000000,0.000000,0.000000
95.180000,0.048872,-0.024775,1.006215,0.000000,0.000000,0.000000,0.000000,0.000000,0.000000,66.000000,95.179000,0.295809,0.612971,9.905036,0.000000,0.000000,0.000000,0.000000,0.000000,0.000000,-0.310302,0.001095,0.990738,0.000377,-0.002682,15.604846,0.135757,0.000000,0.000000,0.000000,0.000000,0.000000,0.000000
95.280000,-0.129013,0.003352,1.109731,0.000000,0.000000,0.000000,0.000000,0.000000,0.000000,67.000000,95.279000,0.270806,0.686297,9.818174,0.000000,0.000000,0.000000,0.000000,0.000000,0.000000,-0.300704,-0.026877,0.982473,0.000259,-0.002622,21.484366,0.186389,0.000000,0.000000,0.000000,0.000000,0.000000,0.000000
95.380000,-0.120329,-0.066019,1.050297,0.000000,0.000000,0.000000,0.000000,0.000000,0.000000,68.000000,95.379000,0.166491,0.475883,9.897501,0.000000,0.000000,0.000000,0.000000,0.000000,0.000000,-0.306048,0.011848,0.971769,0.000731,-0.002571,27.291716,0.235919,0.000000,0.000000,0.000000,0.000000,0.000000,0.000000
95.480000,0.189857,0.046608,0.954231,0.000000,0.000000,0.000000,0.000000,0.000000,0.000000,69.000000,95.479000,0.289282,0.275076,9.685189,0.000000,0.000000,0.000000,0.000000,0.000000,0.000000,-0.300170,0.013573,0.958440,0.000861,-0.002477,33.151428,0.285281,0.000000,0.000000,0.000000,0.000000,0.000000,0.000000
95.580000,-0.041801,0.034053,1.053076,0.000000,0.000000,0.000000,0.000000,0.000000,0.000000,70.000000,95.579000,0.470211,0.811628,9.815049,0.000000,0.000000,0.000000,0.000000,0.000000,0.000000,-0.298073,-0.023411,0.942469,0.000677,-0.002520,39.058143,0.334283,0.000000,0.000000,0.000000,0.000000,0.000000,0.000000
95.680000,-0.032195,-0.066215,1.039764,0.000000,0.000000,0.000000,0.000000,0.000000,0.000000,71.000000,95.679000,0.055322,0.492653,9.862521,0.000000,0.000000,0.000000,0.000000,0.000000,0.000000,-0.310812,0.000361,0.924114,0.001039,-0.002505,44.928803,0.382108,0.000000,0.000000,0.000000,0.000000,0.000000,0.000000
95.780000,0.003382,-0.003206,1.049680,0.000000,0.000000,0.000000,0.000000,0.000000,0.000000,72.000000,95.779000,0.281966,0.378079,9.804525,0.000000,0.000000,0.000000,0.000000,0.000000,0.000000,-0.309651,-0.002513,0.903221,0.001140,-0.002450,50.829615,0.429167,0.000000,0.000000,0.000000,0.000000,0.000000,0.000000
95.880000,-0.100522,-0.090025,1.042867,0.000000,0.000000,0.000000,0.000000,0.000000,0.000000,73.000000,95.879000,0.213626,0.776086,9.744638,0.000000,0.000000,0.000000,0.000000,0.000000,0.000000,-0.305121,0.000378,0.879647,0.001269,-0.002341,56.799588,0.475619,0.000000,0.000000,0.000000,0.000000,0.000000,0.000000
95.980000,0.011715,0.057598,1.029206,0.000000,0.000000,0.000000,0.000000,0.000000,0.000000,74.000000,95.979000,0.367022,0.344054,9.825730,0.000000,0.000000,0.000000,0.000000,0.000000,0.000000,-0.308297,0.004057,0.853889,0.001430,-0.002279,62.724948,0.520449,0.000000,0.000000,0.000000,0.000000,0.000000,0.000000
96.080000,-0.004737,-0.058805,1.027489,0.000000,0.000000,0.000000,0.000000,0.000000,0.000000,75.000000,96.079000,0.224240,0.573984,9.807597,0.000000,0.000000,0.000000,0.000000,0.000000,0.000000,-0.310108,-0.003703,0.825867,0.001499,-0.002253,68.646349,0.563858,0.000000,0.000000,0.000000,0.000000,0.000000,0.000000
96.180000,0.118669,0.043151,0.984621,0.000000,0.000000,0.000000,0.000000,0.000000,0.000000,76.000000,96.179000,0.294966,0.452604,9.688205,0.000000,0.000000,0.000000,0.000000,0.000000,0.000000,-0.304413,0.012000,0.795843,0.001692,-0.002051,74.529574,0.605497,0.000000,0.000000,0.000000,0.000000,0.000000,0.000000
96.280000,-0.039149,-0.006025,1.063176,0.000000,0.000000,0.000000,0.000000,0.000000,0.000000,77.000000,96.279000,0.283675,0.645597,9.817751,0.000000,0.000000,0.000000,0.000000,0.000000,0.000000,-0.309599,-0.003680,0.763940,0.001719,-0.002085,80.373918,0.645281,0.000000,0.000000,0.000000,0.000000,0.000000,0.000000
96.380000,0.087144,0.043255,1.012401,0.000000,0.000000,0.000000,0.000000,0.000000,0.000000,78.000000,96.379000,0.234651,0.428015,9.901783,0.000000,0.000000,0.000000,0.000000,0.000000,0.000000,-0.305117,0.001290,0.729692,0.001829,-0.001935,86.278459,0.683771,0.000000,0.000000,0.000000,0.000000,0.000000,0.000000
96.480000,0.048143,0.023511,1.020172,0.000000,0.000000,0.000000,0.000000,0.000000,0.000000,79.000000,96.479000,0.279797,0.583167,9.816105,0.000000,0.000000,0.000000,0.000000,0.000000,0.000000,-0.304776,-0.003119,0.693371,0.001898,-0.001864,92.204574,0.720576,0.000000,0.000000,0.000000,0.000000,0.000000,0.000000
96.580000,-0.188574,-0.008777,1.037274,0.000000,0.000000,0.000000,0.000000,0.000000,0.000000,80.000000,96.579000,0.237776,0.610786,9.854498,0.000000,0.000000,0.000000,0.000000,0.000000,0.000000,-0.305000,-0.015108,0.655808,0.001923,-0.001845,98.037828,0.754923,0.000000,0.000000,0.000000,0.000000,0.000000,0.000000
96.680000,0.108549,0.054801,0.981789,0.000000,0.000000,0.000000,0.000000,0.000000,0.000000,81.000000,96.679000,0.337103,0.402428,9.611595,0.000000,0.000000,0.000000,0.000000,0.000000,0.000000,-0.302873,0.012570,0.616293,0.002149,-0.001543,103.907798,0.787513,0.000000,0.000000,0.000000,0.000000,0.000000,0.000000
96.780000,0.063560,-0.080183,1.065186,0.000000,0.000000,0.000000,0.000000,0.000000,0.000000,82.000000,96.779000,0.278235,0.519929,9.905252,0.000000,0.000000,0.000000,0.000000,0.000000,0.000000,-0.303988,-0.022557,0.575141,0.002057,-0.001687,109.780784,0.818050,0.000000,0.000000,0.000000,0.000000,0.000000,0.000000
96.880000,-0.031772,-0.056457,1.020251,0.000000,0.000000,0.000000,0.000000,0.000000,0.000000,83.000000,96.879000,0.183889,0.705588,9.699914,0.000000,0.000000,0.000000,0.000000,0.000000,0.000000,-0.310907,-0.003190,0.532656,0.002281,-0.001469,115.629589,0.846328,0.000000,0.000000,0.000000,0.000000,0.000000,0.000000
96.980000,-0.049222,-0.042002,1.020724,0.000000,0.000000,0.000000,0.000000,0.000000,0.000000,84.000000,96.979000,0.221016,0.390410,9.928631,0.000000,0.000000,0.000000,0.000000,0.000000,0.000000,-0.308185,0.007198,0.488498,0.002377,-0.001259,121.515998,0.872561,0.000000,0.000000,0.000000,0.000000,0.000000,0.000000
97.080000,0.047368,0.129243,1.035137,0.000000,0.000000,0.000000,0.000000,0.000000,0.000000,85.000000,97.079000,0.527386,0.526564,9.594112,0.000000,0.000000,0.000000,0.000000,0.000000,0.000000,-0.284775,-0.001004,0.443652,0.002223,-0.001110,127.325571,0.896196,0.000000,0.000000,0.000000,0.000000,0.000000,0.000000
97.180000,0.075584,-0.033709,1.022608,0.000000,0.000000,0.000000,0.000000,0.000000,0.000000,86.000000,97.179000,0.078386,0.478753,9.809139,0.000000,0.000000,0.000000,0.000000,0.000000,0.000000,-0.308649,0.002399,0.397342,0.002480,-0.001051,133.175614,0.917667,0.000000,0.000000,0.000000,0.000000,0.000000,0.000000
97.280000,0.006793,-0.029832,1.047624,0.000000,0.000000,0.000000,0.000000,0.000000,0.000000,87.000000,97.279000,0.265622,0.559328,9.923392,0.000000,0.000000,0.000000,0.000000,0.000000,0.000000,-0.310166,-0.002068,0.349375,0.002530,-0.000963,139.101663,0.936979,0.000000,0.000000,0.000000,0.000000,0.000000,0.000000
97.380000,-0.193024,0.031071,1.045699,0.000000,0.000000,0.000000,0.000000,0.000000,0.000000,88.000000,97.379000,0.325215,0.745137,9.802959,0.000000,0.000000,0.000000,0.000000,0.000000,0.000000,-0.297810,-0.036754,0.300540,0.002382,-0.001087,145.019840,0.953765,0.000000,0.000000,0.000000,0.000000,0.000000,0.000000
97.480000,-0.099577,-0.084667,1.021018,0.000000,0.000000,0.000000,0.000000,0.000000,0.000000,89.000000,97.479000,0.179326,0.386462,9.887807,0.000000,0.000000,0.000000,0.000000,0.000000,0.000000,-0.303969,0.018959,0.251241,0.002609,-0.000506,150.897889,0.967921,0.000000,0.000000,0.000000,0.000000,0.000000,0.000000
97.580000,0.090567,-0.034049,1.024580,0.000000,0.000000,0.000000,0.000000,0.000000,0.000000,90.000000,97.579000,0.295245,0.349891,9.683796,0.000000,0.000000,0.000000,0.000000,0.000000,0.000000,-0.306044,0.008090,0.201157,0.002630,-0.000468,156.790633,0.979555,0.000000,0.000000,0.000000,0.000000,0.000000,0.000000
97.680000,-0.030863,-0.041565,1.082561,0.000000,0.000000,0.000000,0.000000,0.000000,0.000000,91.000000,97.679000,0.388995,0.730956,9.722891,0.000000,0.000000,0.000000,0.000000,0.000000,0.000000,-0.305602,-0.010473,0.150014,0.002623,-0.000490,162.744507,0.988680,0.000000,0.000000,0.000000,0.000000,0.000000,0.000000
97.780000,0.000127,0.071178,1.027646,0.000000,0.000000,0.000000,0.000000,0.000000,0.000000,92.000000,97.779000,0.199140,0.542253,9.940316,0.000000,0.000000,0.000000,0.000000,0.000000,0.000000,-0.305804,-0.001144,0.098880,0.002655,-0.000274,168.650617,0.995096,0.000000,0.000000,0.000000,0.000000,0.000000,0.000000
97.880000,-0.036039,0.029392,1.036547,0.000000,0.000000,0.000000,0.000000,0.000000,0.000000,93.000000,97.879000,0.234264,0.513282,9.850774,0.000000,0.000000,0.000000,0.000000,0.000000,0.000000,-0.303784,-0.004692,0.047824,0.002646,-0.000168,174.517678,0.998852,0.000000,0.000000,0.000000,0.000000,0.000000,0.000000
97.980000,0.068968,0.046707,1.038294,0.000000,0.000000,0.000000,0.000000,0.000000,0.000000,94.000000,97.979000,0.328276,0.418634,9.675203,0.000000,0.000000,0.000000,0.000000,0.000000,0.000000,-0.300321,0.010976,-0.003432,0.002620,0.000105,180.393214,0.999991,0.000000,0.000000,0.000000,0.000000,0.000000,0.000000
98.080000,-0.005136,-0.007442,1.019505,0.000000,0.000000,0.000000,0.000000,0.000000,0.000000,95.000000,98.079000,0.252639,0.677878,9.802323,0.000000,0.000000,0.000000,0.000000,0.000000,0.000000,-0.304847,-0.003807,-0.054847,0.002658,0.000113,186.288235,0.998491,0.000000,0.000000,0.000000,0.000000,0.000000,0.000000
98.180000,-0.062272,-0.048127,1.060257,0.000000,0.000000,0.000000,0.000000,0.000000,0.000000,96.000000,98.179000,0.193223,0.513723,9.877942,0.000000,0.000000,0.000000,0.000000,0.000000,0.000000,-0.303657,-0.001076,-0.106162,0.002636,0.000272,192.188246,0.994345,0.000000,0.000000,0.000000,0.000000,0.000000,0.000000
98.280000,0.103250,-0.002563,1.003998,0.000000,0.000000,0.000000,0.000000,0.000000,0.000000,97.000000,98.279000,0.366442,0.394570,9.712034,0.000000,0.000000,0.000000,0.000000,0.000000,0.000000,-0.303798,0.001093,-0.156817,0.002617,0.000425,198.044446,0.987624,0.000000,0.000000,0.000000,0.000000,0.000000,0.000000
98.380000,-0.077832,0.022722,1.022393,0.000000,0.000000,0.000000,0.000000,0.000000,0.000000,98.000000,98.379000,0.149280,0.759493,9.884652,0.000000,0.000000,0.000000,0.000000,0.000000,0.000000,-0.304642,-0.002962,-0.207481,0.002606,0.000526,203.949653,0.978235,0.000000,0.000000,0.000000,0.000000,0.000000,0.000000
98.480000,0.007096,0.009854,0.985360,0.000000,0.000000,0.000000,0.000000,0.000000,0.000000,99.000000,98.479000,0.335626,0.499530,9.679682,0.000000,0.000000,0.000000,0.000000,0.000000,0.000000,-0.305131,-0.000274,-0.256953,0.002574,0.000682,209.778797,0.966420,0.000000,0.000000,0.000000,0.000000,0.000000,0.000000
98.580000,-0.032522,-0.021502,1.075748,0.000000,0.000000,0.000000,0.000000,0.000000,0.000000,100.000000,98.579000,0.176043,0.492444,9.990319,0.000000,0.000000,0.000000,0.000000,0.000000,0.000000,-0.293896,-0.020586,-0.306171,0.002497,0.000614,215.657487,0.951973,0.000000,0.000000,0.000000,0.000000,0.000000,0.000000
98.680000,-0.132805,-0.082587,1.079392,0.000000,0.000000,0.000000,0.000000,0.000000,0.000000,101.000000,98.679000,0.184543,0.599380,9.786222,0.000000,0.000000,0.000000,0.000000,0.000000,0.000000,-0.296756,0.011783,-0.354367,0.002385,0.001014,221.509462,0.935103,0.000000,0.000000,0.000000,0.000000,0.000000,0.000000
98.780000,0.122426,-0.029114,0.992117,0.000000,0.000000,0.000000,0.000000,0.000000,0.000000,102.000000,98.779000,0.344392,0.231659,9.597629,0.000000,0.000000,0.000000,0.000000,0.000000,0.000000,-0.302488,0.008699,-0.402247,0.002386,0.001131,227.437592,0.915527,0.000000,0.000000,0.000000,0.000000,0.000000,0.000000
98.880000,0.074024,-0.062963,1.061181,0.000000,0.000000,0.000000,0.000000,0.000000,0.000000,103.000000,98.879000,0.326487,0.557634,9.956336,0.000000,0.000000,0.000000,0.000000,0.000000,0.000000,-0.301925,-0.026013,-0.449296,0.002456,0.000981,233.397384,0.893379,0.000000,0.000000,0.000000,0.000000,0.000000,0.000000
98.980000,-0.078700,0.072132,1.109743,0.000000,0.000000,0.000000,0.000000,0.000000,0.000000,104.000000,98.979000,0.243489,0.685592,9.782997,0.000000,0.000000,0.000000,0.000000,0.000000,0.000000,-0.305350,-0.003064,-0.494817,0.002329,0.001295,239.315640,0.868993,0.000000,0.000000,0.000000,0.000000,0.000000,0.000000
99.080000,-0.075883,-0.112531,1.037428,0.000000,0.000000,0.000000,0.000000,0.000000,0.000000,105.000000,99.079000,0.195171,0.475095,9.822427,0.000000,0.000000,0.000000,0.000000,0.000000,0.000000,-0.301138,0.013804,-0.539030,0.002149,0.001518,245.235517,0.842282,0.000000,0.000000,0.000000,0.000000,0.000000,0.000000
99.180000,0.130427,-0.018014,1.002028,0.000000,0.000000,0.000000,0.000000,0.000000,0.000000,106.000000,99.179000,0.386327,0.417836,9.771709,0.000000,0.000000,0.000000,0.000000,0.000000,0.000000,-0.289992,-0.005426,-0.581699,0.002086,0.001434,251.140569,0.813400,0.000000,0.000000,0.000000,0.000000,0.000000,0.000000
99.280000,0.036437,0.019899,1.048599,0.000000,0.000000,0.000000,0.000000,0.000000,0.000000,107.000000,99.279000,0.330554,0.588582,9.784890,0.000000,0.000000,0.000000,0.000000,0.000000,0.000000,-0.304513,0.000383,-0.623120,0.002076,0.001658,257.088969,0.782122,0.000000,0.000000,0.000000,0.000000,0.000000,0.000000
99.380000,0.016775,-0.012723,1.017692,0.000000,0.000000,0.000000,0.000000,0.000000,0.000000,108.000000,99.379000,0.264258,0.607738,9.767441,0.000000,0.000000,0.000000,0.000000,0.000000,0.000000,-0.305487,-0.001293,-0.662459,0.002004,0.001758,262.975660,0.749094,0.000000,0.000000,0.000000,0.000000,0.000000,0.000000
99.480000,-0.129735,-0.030201,1.081657,0.000000,0.000000,0.000000,0.000000,0.000000,0.000000,109.000000,99.479000,0.202274,0.597011,9.769666,0.000000,0.000000,0.000000,0.000000,0.000000,0.000000,-0.302976,-0.008052,-0.700294,0.001937,0.001801,268.901634,0.713849,0.000000,0.000000,0.000000,0.000000,0.000000,0.000000
99.580000,0.065981,0.075647,1.074176,0.000000,0.000000,0.000000,0.000000,0.000000,0.000000,110.000000,99.579000,0.379050,0.330597,9.821360,0.000000,0.000000,0.000000,0.000000,0.000000,0.000000,-0.297106,0.015826,-0.736360,0.001653,0.002003,274.844923,0.676585,0.000000,0.000000,0.000000,0.000000,0.000000,0.000000
99.680000,0.089717,0.013134,0.941807,0.000000,0.000000,0.000000,0.000000,0.000000,0.000000,111.000000,99.679000,0.155066,0.692808,9.779471,0.000000,0.000000,0.000000,0.000000,0.000000,0.000000,-0.306029,0.003839,-0.770125,0.001678,0.002078,280.730662,0.637888,0.000000,0.000000,0.000000,0.000000,0.000000,0.000000
99.780000,-0.056796,-0.024898,1.033396,0.000000,0.000000,0.000000,0.000000,0.000000,0.000000,112.000000,99.779000,0.273887,0.569503,9.825911,0.000000,0.000000,0.000000,0.000000,0.000000,0.000000,-0.311857,-0.002144,-0.801591,0.001642,0.002170,286.565175,0.597867,0.000000,0.000000,0.000000,0.000000,0.000000,0.000000
99.880000,-0.032583,0.010332,1.084045,0.000000,0.000000,0.000000,0.000000,0.000000,0.000000,113.000000,99.879000,0.304721,0.480036,9.699074,0.000000,0.000000,0.000000,0.000000,0.000000,0.000000,-0.307775,-0.006829,-0.831167,0.001543,0.002199,292.438166,0.556017,0.000000,0.000000,0.000000,0.000000,0.000000,0.000000
99.980000,-0.037339,-0.016351,1.043038,0.000000,0.000000,0.000000,0.000000,0.000000,0.000000,114.000000,99.979000,0.195765,0.578966,9.995666,0.000000,0.000000,0.000000,0.000000,0.000000,0.000000,-0.305182,0.001006,-0.858171,0.001360,0.002290,298.224278,0.513358,0.000000,0.000000,0.000000,0.000000,0.000000,0.000000
100.080000,0.099660,-0.023345,1.005329,0.000000,0.000000,0.000000,0.000000,0.000000,0.000000,115.000000,100.079000,0.337190,0.341996,9.648769,0.000000,0.000000,0.000000,0.000000,0.000000,0.000000,-0.311153,0.000862,-0.883501,0.001265,0.002403,304.136129,0.468421,0.000000,0.000000,0.000000,0.000000,0.000000,0.000000
100.180000,-0.030215,-0.030773,1.028048,0.000000,0.000000,0.000000,0.000000,0.000000,0.000000,116.000000,100.179000,0.289482,0.728063,9.840926,0.000000,0.000000,0.000000,0.000000,0.000000,0.000000,-0.312845,-0.006717,-0.906193,0.001208,0.002449,309.969894,0.422855,0.000000,0.000000,0.000000,0.000000,0.000000,0.000000
100.280000,-0.099593,-0.053507,1.038883,0.000000,0.000000,0.000000,0.000000,0.000000,0.000000,117.000000,100.279000,0.211821,0.557200,9.927879,0.000000,0.000000,0.000000,0.000000,0.000000,0.000000,-0.310321,0.007122,-0.926611,0.000961,0.002533,315.826087,0.376012,0.000000,0.000000,0.000000,0.000000,0.000000,0.000000
100.380000,0.076040,-0.019426,1.008283,0.000000,0.000000,0.000000,0.000000,0.000000,0.000000,118.000000,100.379000,0.245922,0.395804,9.734602,0.000000,0.000000,0.000000,0.000000,0.000000,0.000000,-0.307248,-0.020892,-0.944608,0.001052,0.002473,321.682122,0.328189,0.000000,0.000000,0.000000,0.000000,0.000000,0.000000
100.480000,-0.062755,-0.053866,1.030537,0.000000,0.000000,0.000000,0.000000,0.000000,0.000000,119.000000,100.479000,0.277399,0.693203,9.748817,0.000000,0.000000,0.000000,0.000000,0.000000,0.000000,-0.312156,-0.007701,-0.960142,0.000826,0.002597,327.539161,0.279500,0.000000,0.000000,0.000000,0.000000,0.000000,0.000000
100.580000,0.040480,0.011255,1.020332,0.000000,0.000000,0.000000,0.000000,0.000000,0.000000,120.000000,100.579000,0.230837,0.377313,9.819035,0.000000,0.000000,0.000000,0.000000,0.000000,0.000000,-0.314309,0.001619,-0.973214,0.000617,0.002673,333.419528,0.229883,0.000000,0.000000,0.000000,0.000000,0.000000,0.000000
100.680000,-0.039347,-0.060509,1.026685,0.000000,0.000000,0.000000,0.000000,0.000000,0.000000,121.000000,100.679000,0.280914,0.566480,9.871965,0.000000,0.000000,0.000000,0.000000,0.000000,0.000000,-0.301907,-0.011719,-0.983783,0.000573,0.002574,339.336822,0.179344,0.000000,0.000000,0.000000,0.000000,0.000000,0.000000
100.780000,0.122975,0.053743,0.986287,0.000000,0.000000,0.000000,0.000000,0.000000,0.000000,122.000000,100.779000,0.326230,0.435050,9.511089,0.000000,0.000000,0.000000,0.000000,0.000000,0.000000,-0.300856,0.025900,-0.991736,0.000113,0.002633,345.260995,0.128267,0.000000,0.000000,0.000000,0.000000,0.000000,0.000000
100.880000,0.092745,0.032223,0.967341,0.000000,0.000000,0.000000,0.000000,0.000000,0.000000,123.000000,100.879000,0.285377,0.547187,9.902246,0.000000,0.000000,0.000000,0.000000,0.000000,0.000000,-0.310764,0.007399,-0.997011,0.000145,0.002709,351.143141,0.077213,0.000000,0.000000,0.000000,0.000000,0.000000,0.000000
100.980000,0.059320,-0.098994,1.088655,0.000000,0.000000,0.000000,0.000000,0.000000,0.000000,124.000000,100.979000,0.277555,0.591478,9.871492,0.000000,0.000000,0.000000,0.000000,0.000000,0.000000,-0.310533,-0.017151,-0.999683,0.000217,0.002705,357.133357,0.025014,0.000000,0.000000,0.000000,0.000000,0.000000,0.000000
101.080000,-0.060614,0.021573,1.095529,0.000000,0.000000,0.000000,0.000000,0.000000,0.000000,125.000000,101.079000,0.192355,0.583614,9.881851,0.000000,0.000000,0.000000,0.000000,0.000000,0.000000,-0.311004,0.005829,-0.999640,-0.000123,0.002712,363.058398,-0.026686,0.000000,0.000000,0.000000,0.000000,0.000000,0.000000
101.180000,0.137784,0.101535,1.027732,0.000000,0.000000,0.000000,0.000000,0.000000,0.000000,126.000000,101.179000,0.361570,0.253446,9.646562,0.000000,0.000000,0.000000,0.000000,0.000000,0.000000,-0.299016,0.033605,-0.996958,-0.000496,0.002579,368.935411,-0.077898,0.000000,0.000000,0.000000,0.000000,0.000000,0.000000
101.280000,0.044238,0.020868,1.005837,0.000000,0.000000,0.000000,0.000000,0.000000,0.000000,127.000000,101.279000,0.292568,0.789111,9.768189,0.000000,0.000000,0.000000,0.000000,0.000000,0.000000,-0.307880,0.000499,-0.991617,-0.000351,0.002664,374.845232,-0.129187,0.000000,0.000000,0.000000,0.000000,0.000000,0.000000
101.380000,-0.074551,0.007565,1.050436,0.000000,0.000000,0.000000,0.000000,0.000000,0.000000,128.000000,101.379000,0.271878,0.633079,9.895227,0.000000,0.000000,0.000000,0.000000,0.000000,0.000000,-0.310511,-0.012105,-0.983742,-0.000383,0.002685,380.689190,-0.179567,0.000000,0.000000,0.000000,0.000000,0.000000,0.000000
101.480000,-0.002417,-0.000613,1.055459,0.000000,0.000000,0.000000,0.000000,0.000000,0.000000,129.000000,101.479000,0.166924,0.394346,9.900699,0.000000,0.000000,0.000000,0.000000,0.000000,0.000000,-0.314671,0.000413,-0.973246,-0.000634,0.002672,386.564547,-0.229748,0.000000,0.000000,0.000000,0.000000,0.000000,0.000000
101.580000,-0.062314,-0.064041,1.070120,0.000000,0.000000,0.000000,0.000000,0.000000,0.000000,130.000000,101.579000,0.216406,0.558743,9.733355,0.000000,0.000000,0.000000,0.000000,0.000000,0.000000,-0.312999,0.007919,-0.960230,-0.000829,0.002604,392.424675,-0.279197,0.000000,0.000000,0.000000,0.000000,0.000000,0.000000
101.680000,0.062598,0.024084,0.977305,0.000000,0.000000,0.000000,0.000000,0.000000,0.000000,131.000000,101.679000,0.402721,0.550416,9.615843,0.000000,0.000000,0.000000,0.000000,0.000000,0.000000,-0.306590,0.000083,-0.944529,-0.000879,0.002527,398.345703,-0.328418,0.000000,0.000000,0.000000,0.000000,0.000000,0.000000
101.780000,0.019664,-0.019545,1.023691,0.000000,0.000000,0.000000,0.000000,0.000000,0.000000,132.000000,101.779000,0.221179,0.504844,9.989100,0.000000,0.000000,0.000000,0.000000,0.000000,0.000000,-0.314828,-0.000882,-0.926196,-0.001029,0.002548,404.300023,-0.377031,0.000000,0.000000,0.000000,0.000000,0.000000,0.000000
101.880000,0.124413,0.012901,0.966147,0.000000,0.000000,0.000000,0.000000,0.000000,0.000000,133.000000,101.879000,0.279793,0.453925,9.692180,0.000000,0.000000,0.000000,0.000000,0.000000,0.000000,-0.309574,0.004330,-0.905706,-0.001179,0.002431,410.162030,-0.423898,0.000000,0.000000,0.000000,0.000000,0.000000,0.000000
101.980000,-0.022911,0.025997,1.006996,0.000000,0.000000,0.000000,0.000000,0.000000,0.000000,134.000000,101.979000,0.342140,0.735824,9.792141,0.000000,0.000000,0.000000,0.000000,0.000000,0.000000,-0.309515,-0.010481,-0.882694,-0.001189,0.002427,416.061145,-0.469941,0.000000,0.000000,0.000000,0.000000,0.000000,0.000000
102.080000,-0.067745,-0.060636,1.057813,0.000000,0.000000,0.000000,0.000000,0.000000,0.000000,135.000000,102.079000,0.109103,0.453614,9.977727,0.000000,0.000000,0.000000,0.000000,0.000000,0.000000,-0.312416,0.004243,-0.857477,-0.001435,0.002319,421.930430,-0.514516,0.000000,0.000000,0.000000,0.000000,0.000000,0.000000
102.180000,0.083910,-0.056631,1.010124,0.000000,0.000000,0.000000,0.000000,0.000000,0.000000,136.000000,102.179000,0.270596,0.348875,9.676650,0.000000,0.000000,0.000000,0.000000,0.000000,0.000000,-0.309451,-0.014733,-0.829813,-0.001400,0.002313,427.840422,-0.558036,0.000000,0.000000,0.000000,0.000000,0.000000,0.000000
102.280000,-0.064143,0.021839,1.029885,0.000000,0.000000,0.000000,0.000000,0.000000,0.000000,137.000000,102.279000,0.370111,0.733456,9.797671,0.000000,0.000000,0.000000,0.000000,0.000000,0.000000,-0.305968,-0.008308,-0.800140,-0.001544,0.002180,433.712480,-0.599807,0.000000,0.000000,0.000000,0.000000,0.000000,0.000000
102.380000,0.105257,0.055647,1.000866,0.000000,0.000000,0.000000,0.000000,0.000000,0.000000,138.000000,102.379000,0.243679,0.334642,9.815299,0.000000,0.000000,0.000000,0.000000,0.000000,0.000000,-0.306430,0.018306,-0.768570,-0.001834,0.001953,439.548240,-0.639761,0.000000,0.000000,0.000000,0.000000,0.000000,0.000000
102.480000,0.115545,-0.046564,1.032216,0.000000,0.000000,0.000000,0.000000,0.000000,0.000000,139.000000,102.479000,0.286914,0.496161,9.782292,0.000000,0.000000,0.000000,0.000000,0.000000,0.000000,-0.309676,-0.012041,-0.734187,-0.001758,0.002055,445.522387,-0.678942,0.000000,0.000000,0.000000,0.000000,0.000000,0.000000
102.581000,0.018675,0.064181,1.023404,0.000000,0.000000,0.000000,0.000000,0.000000,0.000000,140.000000,102.579000,0.282028,0.720716,9.811709,0.000000,0.000000,0.000000,0.000000,0.000000,0.000000,-0.310499,-0.004342,-0.698562,-0.001912,0.001920,451.376183,-0.715545,0.000000,0.000000,0.000000,0.000000,0.000000,0.000000
102.680000,0.012543,0.047609,1.094213,0.000000,0.000000,0.000000,0.000000,0.000000,0.000000,141.000000,102.679000,0.175625,0.407488,9.841524,0.000000,0.000000,0.000000,0.000000,0.000000,0.000000,-0.310922,0.001488,-0.660931,-0.002045,0.001784,457.257826,-0.750442,0.000000,0.000000,0.000000,0.000000,0.000000,0.000000
102.780000,-0.058762,-0.089380,1.026083,0.000000,0.000000,0.000000,0.000000,0.000000,0.000000,142.000000,102.779000,0.250027,0.696365,9.917955,0.000000,0.000000,0.000000,0.000000,0.000000,0.000000,-0.303486,-0.000506,-0.621587,-0.002072,0.001650,463.135419,-0.783341,0.000000,0.000000,0.000000,0.000000,0.000000,0.000000
102.880000,0.107446,0.053187,1.001068,0.000000,0.000000,0.000000,0.000000,0.000000,0.000000,143.000000,102.879000,0.406309,0.312284,9.608384,0.000000,0.000000,0.000000,0.000000,0.000000,0.000000,-0.307173,0.014528,-0.580514,-0.002256,0.001453,469.026302,-0.814246,0.000000,0.000000,0.000000,0.000000,0.000000,0.000000
102.980000,0.025034,0.056465,1.045062,0.000000,0.000000,0.000000,0.000000,0.000000,0.000000,144.000000,102.979000,0.225495,0.626336,9.858920,0.000000,0.000000,0.000000,0.000000,0.000000,0.000000,-0.312751,0.001247,-0.537790,-0.002307,0.001459,474.933068,-0.843074,0.000000,0.000000,0.000000,0.000000,0.000000,0.000000
103.080000,-0.042171,-0.018640,1.036897,0.000000,0.000000,0.000000,0.000000,0.000000,0.000000,145.000000,103.079000,0.298474,0.658128,9.847075,0.000000,0.000000,0.000000,0.000000,0.000000,0.000000,-0.311292,-0.007218,-0.493843,-0.002331,0.001396,480.812745,-0.869547,0.000000,0.000000,0.000000,0.000000,0.000000,0.000000
103.180000,-0.132586,-0.018342,1.022213,0.000000,0.000000,0.000000,0.000000,0.000000,0.000000,146.000000,103.179000,0.200324,0.620166,9.869184,0.000000,0.000000,0.000000,0.000000,0.000000,0.000000,-0.305415,0.000965,-0.448802,-0.002386,0.001189,486.666155,-0.893627,0.000000,0.000000,0.000000,0.000000,0.000000,0.000000
103.280000,0.045761,-0.061981,-0.258004,0.000000,0.000000,0.000000,0.000000,0.000000,0.000000,147.000000,103.279000,-1.298026,1.897728,9.652781,0.000000,0.000000,0.000000,0.000000,0.000000,0.000000,-0.304271,-0.003162,-0.458632,-0.002347,0.001242,485.402031,-0.888622,0.000000,0.000000,0.000000,0.000000,0.000000,0.000000
103.380000,-0.013824,0.025353,0.542425,0.000000,0.000000,0.000000,0.000000,0.000000,0.000000,148.000000,103.379000,1.386682,-1.173179,9.745805,0.000000,0.000000,0.000000,0.000000,0.000000,0.000000,-0.305151,-0.001702,-0.438701,-0.002386,0.001182,487.957712,-0.898629,0.000000,0.000000,0.000000,0.000000,0.000000,0.000000
103.480000,-0.013126,0.043033,0.473823,0.000000,0.000000,0.000000,0.000000,0.000000,0.000000,149.000000,103.479000,0.128933,0.461199,9.878211,0.000000,0.000000,0.000000,0.000000,0.000000,0.000000,-0.305889,-0.005573,-0.415610,-0.002408,0.001154,490.884357,-0.909539,0.000000,0.000000,0.000000,0.000000,0.000000,0.000000
103.580000,0.012714,0.023396,0.511064,0.000000,0.000000,0.000000,0.000000,0.000000,0.000000,150.000000,103.579000,0.022813,0.154040,9.822050,0.000000,0.000000,0.000000,0.000000,0.000000,0.000000,-0.303952,-0.000740,-0.392161,-0.002437,0.001046,493.821798,-0.919893,0.000000,0.000000,0.000000,0.000000,0.000000,0.000000
103.680000,-0.097975,0.002624,0.520812,0.000000,0.000000,0.000000,0.000000,0.000000,0.000000,151.000000,103.679000,0.129125,0.420192,9.690234,0.000000,0.000000,0.000000,0.000000,0.000000,0.000000,-0.304327,-0.018089,-0.368607,-0.002411,0.001126,496.740367,-0.929581,0.000000,0.000000,0.000000,0.000000,0.000000,0.000000
103.780000,0.000737,0.014052,0.547086,0.000000,0.000000,0.000000,0.000000,0.000000,0.000000,152.000000,103.779000,0.133360,0.046899,10.007325,0.000000,0.000000,0.000000,0.000000,0.000000,0.000000,-0.306519,-0.004747,-0.344731,-0.002497,0.000961,499.669078,-0.938698,0.000000,0.000000,0.000000,0.000000,0.000000,0.000000
103.880000,-0.010550,0.027319,0.495600,0.000000,0.000000,0.000000,0.000000,0.000000,0.000000,153.000000,103.879000,0.104928,0.417640,9.683822,0.000000,0.000000,0.000000,0.000000,0.000000,0.000000,-0.301909,-0.008736,-0.319867,-0.002472,0.000915,502.690113,-0.947459,0.000000,0.000000,0.000000,0.000000,0.000000,0.000000
103.980000,0.012647,0.015988,0.482230,0.000000,0.000000,0.000000,0.000000,0.000000,0.000000,154.000000,103.979000,0.078555,0.219070,9.867497,0.000000,0.000000,0.000000,0.000000,0.000000,0.000000,-0.305329,-0.000724,-0.295078,-0.002544,0.000792,505.675487,-0.955470,0.000000,0.000000,0.000000,0.000000,0.000000,0.000000
104.080000,-0.062668,-0.011690,0.559498,0.000000,0.000000,0.000000,0.000000,0.000000,0.000000,155.000000,104.079000,0.070602,0.258350,9.722883,0.000000,0.000000,0.000000,0.000000,0.000000,0.000000,-0.306217,-0.002549,-0.270062,-0.002567,0.000743,508.664025,-0.962839,0.000000,0.000000,0.000000,0.000000,0.000000,0.000000
104.180000,-0.122648,-0.020453,0.574941,0.000000,0.000000,0.000000,0.000000,0.000000,0.000000,156.000000,104.179000,0.151344,0.323328,9.715580,0.000000,0.000000,0.000000,0.000000,0.000000,0.000000,-0.299718,-0.016938,-0.244802,-0.002500,0.000784,511.659679,-0.969570,0.000000,0.000000,0.000000,0.000000,0.000000,0.000000
104.280000,-0.030461,-0.028058,0.527666,0.000000,0.000000,0.000000,0.000000,0.000000,0.000000,157.000000,104.279000,0.047828,0.228422,9.800472,0.000000,0.000000,0.000000,0.000000,0.000000,0.000000,-0.307354,-0.000823,-0.219791,-0.002615,0.000597,514.606422,-0.975543,0.000000,0.000000,0.000000,0.000000,0.000000,0.000000
104.380000,-0.082260,-0.033148,0.540443,0.000000,0.000000,0.000000,0.000000,0.000000,0.000000,158.000000,104.379000,0.170332,0.396113,9.750046,0.000000,0.000000,0.000000,0.000000,0.000000,0.000000,-0.303313,-0.024085,-0.194412,-0.002556,0.000721,517.579217,-0.980916,0.000000,0.000000,0.000000,0.000000,0.000000,0.000000
104.480000,-0.018387,-0.020298,0.538045,0.000000,0.000000,0.000000,0.000000,0.000000,0.000000,159.000000,104.479000,0.049270,0.069049,9.968752,0.000000,0.000000,0.000000,0.000000,0.000000,0.000000,-0.305784,-0.002099,-0.169077,-0.002627,0.000469,520.531634,-0.985599,0.000000,0.000000,0.000000,0.000000,0.000000,0.000000
104.580000,-0.030220,-0.055581,0.528840,0.000000,0.000000,0.000000,0.000000,0.000000,0.000000,160.000000,104.579000,0.043385,0.372595,9.763430,0.000000,0.000000,0.000000,0.000000,0.000000,0.000000,-0.306156,-0.000400,-0.143067,-0.002644,0.000386,523.549223,-0.989709,0.000000,0.000000,0.000000,0.000000,0.000000,0.000000
104.680000,-0.045442,0.007195,0.529016,0.000000,0.000000,0.000000,0.000000,0.000000,0.000000,161.000000,104.679000,0.143321,0.236120,9.823017,0.000000,0.000000,0.000000,0.000000,0.000000,0.000000,-0.304521,0.000048,-0.117529,-0.002639,0.000312,526.500919,-0.993066,0.000000,0.000000,0.000000,0.000000,0.000000,0.000000
104.780000,-0.029060,-0.046869,0.517199,0.000000,0.000000,0.000000,0.000000,0.000000,0.000000,162.000000,104.779000,0.111127,0.276962,9.679805,0.000000,0.000000,0.000000,0.000000,0.000000,0.000000,-0.307824,-0.003164,-0.091927,-0.002672,0.000274,529.451029,-0.995762,0.000000,0.000000,0.000000,0.000000,0.000000,0.000000
104.880000,0.044855,-0.057334,0.522311,0.000000,0.000000,0.000000,0.000000,0.000000,0.000000,163.000000,104.879000,0.100596,0.151698,10.021835,0.000000,0.000000,0.000000,0.000000,0.000000,0.000000,-0.300843,-0.007689,-0.065864,-0.002615,0.000240,532.447064,-0.997825,0.000000,0.000000,0.000000,0.000000,0.000000,0.000000
104.980000,-0.016613,-0.009187,0.516829,0.000000,0.000000,0.000000,0.000000,0.000000,0.000000,164.000000,104.979000,0.161556,0.346735,9.782770,0.000000,0.000000,0.000000,0.000000,0.000000,0.000000,-0.304160,0.001200,-0.040000,-0.002653,0.000096,535.415120,-0.999196,0.000000,0.000000,0.000000,0.000000,0.000000,0.000000
105.080000,0.030289,-0.036695,0.540691,0.000000,0.000000,0.000000,0.000000,0.000000,0.000000,165.000000,105.079000,0.101986,0.296643,9.840556,0.000000,0.000000,0.000000,0.000000,0.000000,0.000000,-0.295294,-0.018453,-0.013800,-0.002574,0.000197,538.418600,-0.999901,0.000000,0.000000,0.000000,0.000000,0.000000,0.000000
105.180000,0.111794,0.008245,0.477006,0.000000,0.000000,0.000000,0.000000,0.000000,0.000000,166.000000,105.179000,0.099047,0.175574,9.626000,0.000000,0.000000,0.000000,0.000000,0.000000,0.000000,-0.303803,0.004854,0.012001,-0.002650,-0.000074,541.375251,-0.999924,0.000000,0.000000,0.000000,0.000000,0.000000,0.000000
105.280000,-0.050840,-0.011536,0.520155,0.000000,0.000000,0.000000,0.000000,0.000000,0.000000,167.000000,105.279000,0.081228,0.275276,9.793813,0.000000,0.000000,0.000000,0.000000,0.000000,0.000000,-0.306812,0.003053,0.037793,-0.002675,-0.000128,544.331788,-0.999282,0.000000,0.000000,0.000000,0.000000,0.000000,0.000000
105.380000,-0.071817,0.021238,0.528368,0.000000,0.000000,0.000000,0.000000,0.000000,0.000000,168.000000,105.379000,0.092511,0.387509,9.863441,0.000000,0.000000,0.000000,0.000000,0.000000,0.000000,-0.300779,-0.001538,0.063386,-0.002620,-0.000153,547.268354,-0.997986,0.000000,0.000000,0.000000,0.000000,0.000000,0.000000
105.480000,-0.038050,-0.038167,0.511091,0.000000,0.000000,0.000000,0.000000,0.000000,0.000000,169.000000,105.479000,0.101937,0.280174,9.632592,0.000000,0.000000,0.000000,0.000000,0.000000,0.000000,-0.312211,-0.003732,0.089255,-0.002717,-0.000211,550.241603,-0.996005,0.000000,0.000000,0.000000,0.000000,0.000000,0.000000
105.580000,0.118326,-0.006313,0.464557,0.000000,0.000000,0.000000,0.000000,0.000000,0.000000,170.000000,105.579000,0.106429,0.074334,9.953569,0.000000,0.000000,0.000000,0.000000,0.000000,0.000000,-0.299889,-0.006552,0.114838,-0.002606,-0.000244,553.188680,-0.993381,0.000000,0.000000,0.000000,0.000000,0.000000,0.000000
105.680000,-0.086325,-0.007307,0.547142,0.000000,0.000000,0.000000,0.000000,0.000000,0.000000,171.000000,105.679000,0.119089,0.370334,9.802184,0.000000,0.000000,0.000000,0.000000,0.000000,0.000000,-0.301943,0.003718,0.140357,-0.002604,-0.000402,556.137073,-0.990097,0.000000,0.000000,0.000000,0.000000,0.000000,0.000000
105.780000,-0.013265,-0.053732,0.546027,0.000000,0.000000,0.000000,0.000000,0.000000,0.000000,172.000000,105.779000,0.109519,0.306841,9.797506,0.000000,0.000000,0.000000,0.000000,0.000000,0.000000,-0.299601,-0.004238,0.166098,-0.002584,-0.000398,559.122180,-0.986106,0.000000,0.000000,0.000000,0.000000,0.000000,0.000000
105.880000,-0.044251,-0.005809,0.572861,0.000000,0.000000,0.000000,0.000000,0.000000,0.000000,173.000000,105.879000,0.081775,0.209246,9.811289,0.000000,0.000000,0.000000,0.000000,0.000000,0.000000,-0.304971,-0.001678,0.191347,-0.002615,-0.000495,562.062943,-0.981519,0.000000,0.000000,0.000000,0.000000,0.000000,0.000000
105.980000,0.013121,0.033833,0.560989,0.000000,0.000000,0.000000,0.000000,0.000000,0.000000,174.000000,105.979000,0.173556,0.164477,9.667141,0.000000,0.000000,0.000000,0.000000,0.000000,0.000000,-0.305907,0.004258,0.216538,-0.002598,-0.000614,565.011610,-0.976271,0.000000,0.000000,0.000000,0.000000,0.000000,0.000000
106.080000,-0.062681,-0.049127,0.542447,0.000000,0.000000,0.000000,0.000000,0.000000,0.000000,175.000000,106.079000,0.022636,0.396338,9.934237,0.000000,0.000000,0.000000,0.000000,0.000000,0.000000,-0.309351,0.006280,0.241791,-0.002606,-0.000706,567.984608,-0.970325,0.000000,0.000000,0.000000,0.000000,0.000000,0.000000
106.180000,-0.146777,-0.022810,0.565217,0.000000,0.000000,0.000000,0.000000,0.000000,0.000000,176.000000,106.179000,0.151450,0.342502,9.730236,0.000000,0.000000,0.000000,0.000000,0.000000,0.000000,-0.303259,-0.004835,0.267001,-0.002562,-0.000666,570.971899,-0.963693,0.000000,0.000000,0.000000,0.000000,0.000000,0.000000
106.280000,0.028880,-0.027922,0.514956,0.000000,0.000000,0.000000,0.000000,0.000000,0.000000,177.000000,106.279000,0.118249,0.121508,9.924133,0.000000,0.000000,0.000000,0.000000,0.000000,0.000000,-0.309933,-0.005722,0.291892,-0.002601,-0.000742,573.942707,-0.956447,0.000000,0.000000,0.000000,0.000000,0.000000,0.000000
106.380000,0.024048,0.093380,0.512043,0.000000,0.000000,0.000000,0.000000,0.000000,0.000000,178.000000,106.379000,0.197016,0.301979,9.632695,0.000000,0.000000,0.000000,0.000000,0.000000,0.000000,-0.304133,0.006048,0.316361,-0.002501,-0.000890,576.886116,-0.948635,0.000000,0.000000,0.000000,0.000000,0.000000,0.000000
106.480000,-0.054721,-0.006176,0.526707,0.000000,0.000000,0.000000,0.000000,0.000000,0.000000,179.000000,106.479000,-0.014761,0.218687,9.951286,0.000000,0.000000,0.000000,0.000000,0.000000,0.000000,-0.305452,0.009928,0.340651,-0.002477,-0.000989,579.833182,-0.940186,0.000000,0.000000,0.000000,0.000000,0.000000,0.000000
106.580000,-0.095282,-0.027658,0.569742,0.000000,0.000000,0.000000,0.000000,0.000000,0.000000,180.000000,106.579000,0.129411,0.324061,9.837506,0.000000,0.000000,0.000000,0.000000,0.000000,0.000000,-0.306204,0.014140,0.364633,-0.002443,-0.001089,582.770131,-0.931147,0.000000,0.000000,0.000000,0.000000,0.000000,0.000000
106.680000,-0.019062,-0.058083,0.536414,0.000000,0.000000,0.000000,0.000000,0.000000,0.000000,181.000000,106.679000,0.100167,0.315953,9.577460,0.000000,0.000000,0.000000,0.000000,0.000000,0.000000,-0.310509,-0.011560,0.388768,-0.002536,-0.000961,585.755882,-0.921332,0.000000,0.000000,0.000000,0.000000,0.000000,0.000000
106.780000,0.122253,0.078649,0.487333,0.000000,0.000000,0.000000,0.000000,0.000000,0.000000,182.000000,106.779000,0.129365,0.067137,9.866798,0.000000,0.000000,0.000000,0.000000,0.000000,0.000000,-0.303654,0.017991,0.412760,-0.002349,-0.001237,588.756823,-0.910836,0.000000,0.000000,0.000000,0.000000,0.000000,0.000000
106.880000,-0.169143,-0.001247,0.546676,0.000000,0.000000,0.000000,0.000000,0.000000,0.000000,183.000000,106.879000,0.108005,0.633704,9.920590,0.000000,0.000000,0.000000,0.000000,0.000000,0.000000,-0.298630,-0.004238,0.436176,-0.002361,-0.001103,591.720464,-0.899858,0.000000,0.000000,0.000000,0.000000,0.000000,0.000000
106.980000,-0.023363,-0.056254,0.549945,0.000000,0.000000,0.000000,0.000000,0.000000,0.000000,184.000000,106.979000,0.064912,-0.034041,9.837756,0.000000,0.000000,0.000000,0.000000,0.000000,0.000000,-0.308905,0.007246,0.459386,-0.002365,-0.001295,594.695236,-0.888232,0.000000,0.000000,0.000000,0.000000,0.000000,0.000000
107.080000,-0.057596,-0.037649,0.525092,0.000000,0.000000,0.000000,0.000000,0.000000,0.000000,185.000000,107.079000,0.130863,0.494331,9.604947,0.000000,0.000000,0.000000,0.000000,0.000000,0.000000,-0.309512,-0.007845,0.482271,-0.002399,-0.001243,597.667956,-0.876018,0.000000,0.000000,0.000000,0.000000,0.000000,0.000000
107.180000,0.098325,0.088813,0.490411,0.000000,0.000000,0.000000,0.000000,0.000000,0.000000,186.000000,107.179000,0.163203,0.030634,9.806106,0.000000,0.000000,0.000000,0.000000,0.000000,0.000000,-0.300710,0.024679,0.504303,-0.002157,-0.001509,600.570383,-0.863523,0.000000,0.000000,0.000000,0.000000,0.000000,0.000000
